{
  "_note": "Generated by geocode.py from day-14-kyoto.seed.json. Pins are auto-geocoded; verify before relying on them. 0 failure(s) need manual fix.",
  "region": "arashiyama",
  "places": [
    {
      "name": "Kyoto Station (depart)",
      "time": "08:30",
      "category": "transit",
      "lat": 34.98549,
      "lng": 135.75857
    },
    {
      "name": "Saga-Arashiyama Station",
      "time": "08:50",
      "category": "transit",
      "lat": 35.01644,
      "lng": 135.68007
    },
    {
      "name": "Tenryu-ji",
      "time": "09:00",
      "category": "anchor",
      "lat": 35.01622,
      "lng": 135.67294
    },
    {
      "name": "Arashiyama Bamboo Grove (corridor)",
      "time": "10:00",
      "category": "wander",
      "lat": 35.01674,
      "lng": 135.67115
    },
    {
      "name": "Okochi Sanso Villa",
      "time": "10:15",
      "category": "anchor",
      "lat": 35.01663,
      "lng": 135.66959
    },
    {
      "name": "Togetsukyo Bridge",
      "time": "11:00",
      "category": "wander",
      "lat": 35.01185,
      "lng": 135.67753
    },
    {
      "name": "% Arabica Arashiyama",
      "time": "11:25",
      "category": "coffee",
      "lat": 35.01354,
      "lng": 135.67644
    },
    {
      "name": "Shigetsu (Tenryu-ji shojin-ryori)",
      "time": "11:30",
      "category": "lunch",
      "lat": 35.0162,
      "lng": 135.6729,
      "notes": "Inside Tenryu-ji grounds"
    },
    {
      "name": "Saiho-ji (Kokedera)",
      "time": "13:00",
      "category": "anchor",
      "lat": 34.99174,
      "lng": 135.68465
    },
    {
      "name": "Suzumushi-dera",
      "time": "15:30 optional",
      "category": "anchor",
      "lat": 34.9929,
      "lng": 135.684
    },
    {
      "name": "Philosopher's Path (Tetsugaku-no-michi)",
      "time": "16:30",
      "category": "wander",
      "lat": 35.02671,
      "lng": 135.79551
    },
    {
      "name": "Eikan-do",
      "time": "evening",
      "category": "anchor",
      "lat": 35.0151,
      "lng": 135.79566
    },
    {
      "name": "Monk (pizza dinner, near Philosopher's Path)",
      "time": "19:00",
      "category": "dinner",
      "lat": 35.01923,
      "lng": 135.79431
    }
  ]
}
