{
  "_note": "Generated by geocode.py from day-03-tokyo.seed.json. Pins are auto-geocoded; verify before relying on them. 0 failure(s) need manual fix.",
  "region": "tokyo",
  "places": [
    {
      "name": "Harajuku Station",
      "time": "09:00",
      "category": "transit",
      "lat": 35.6705,
      "lng": 139.70241
    },
    {
      "name": "Meiji Jingu",
      "time": "09:15",
      "category": "anchor",
      "lat": 35.67484,
      "lng": 139.69963
    },
    {
      "name": "Yoyogi Park (east edge)",
      "time": "10:55",
      "category": "transit",
      "lat": 35.67141,
      "lng": 139.69517
    },
    {
      "name": "The Roastery by Nozy Coffee",
      "time": "11:20",
      "category": "coffee",
      "lat": 35.66549,
      "lng": 139.70481
    },
    {
      "name": "Maisen Aoyama Honten",
      "time": "12:00",
      "category": "lunch",
      "lat": 35.66797,
      "lng": 139.71153
    },
    {
      "name": "@cosme TOKYO",
      "time": "13:30",
      "category": "shop",
      "lat": 35.67016,
      "lng": 139.70313
    },
    {
      "name": "Cosme Kitchen Omotesando",
      "time": "afternoon",
      "category": "shop",
      "lat": 35.66502,
      "lng": 139.71154
    },
    {
      "name": "Shu Uemura Tokyo Makeup Box",
      "time": "afternoon",
      "category": "shop",
      "lat": 35.66702,
      "lng": 139.71024
    },
    {
      "name": "Beautylibrary Aoyama",
      "time": "afternoon",
      "category": "shop",
      "lat": 35.66672,
      "lng": 139.71886
    },
    {
      "name": "Daikanyama T-Site / Tsutaya Books",
      "time": "afternoon (Clemens split)",
      "category": "shop",
      "lat": 35.64982,
      "lng": 139.70014
    },
    {
      "name": "Okura (indigo workwear)",
      "time": "afternoon",
      "category": "shop",
      "lat": 35.64923,
      "lng": 139.70302
    },
    {
      "name": "Shibuya Sky",
      "time": "17:00",
      "category": "anchor",
      "lat": 35.65838,
      "lng": 139.70222,
      "notes": "Book sunset slot ahead"
    },
    {
      "name": "Shibuya Crossing",
      "time": "18:30",
      "category": "anchor",
      "lat": 35.6595,
      "lng": 139.7005
    },
    {
      "name": "Katsukichi Shibuya",
      "time": "19:30",
      "category": "dinner",
      "lat": 35.65826,
      "lng": 139.69864
    }
  ]
}
