{
  "_note": "Generated by geocode.py from day-10-takayama-shirakawago.seed.json. Pins are auto-geocoded; verify before relying on them. 0 failure(s) need manual fix.",
  "region": "shirakawago",
  "places": [
    {
      "name": "Takayama Nōhi Bus Center",
      "time": "07:15",
      "category": "transit",
      "lat": 36.13917,
      "lng": 137.25243
    },
    {
      "name": "Shirakawa-go Bus Terminal",
      "time": "08:40",
      "category": "transit",
      "lat": 36.26202,
      "lng": 136.90687
    },
    {
      "name": "Deai Bridge",
      "time": "08:55",
      "category": "wander",
      "lat": 36.25735,
      "lng": 136.90683
    },
    {
      "name": "Shiroyama Viewpoint (Ogimachi)",
      "time": "09:15",
      "category": "anchor",
      "lat": 36.26289,
      "lng": 136.90837
    },
    {
      "name": "Wada House (Wada-ke)",
      "time": "10:30",
      "category": "anchor",
      "lat": 36.25992,
      "lng": 136.90763
    },
    {
      "name": "Kanda House",
      "time": "wander",
      "category": "anchor",
      "lat": 36.2578,
      "lng": 136.90708
    },
    {
      "name": "Myōzen-ji Temple Museum",
      "time": "wander",
      "category": "anchor",
      "lat": 36.25604,
      "lng": 136.9066
    },
    {
      "name": "Irori (lunch)",
      "time": "12:30",
      "category": "lunch",
      "lat": 36.25735,
      "lng": 136.90683
    },
    {
      "name": "Akiba-jinja Shrine",
      "time": "14:00",
      "category": "anchor",
      "lat": 36.25662,
      "lng": 136.9044
    },
    {
      "name": "Cafe Kiraku",
      "time": "15:00",
      "category": "coffee",
      "lat": 36.2589,
      "lng": 136.9072
    },
    {
      "name": "Tsuzumi-soba (Takayama dinner alt)",
      "time": "19:00",
      "category": "dinner",
      "lat": 36.14266,
      "lng": 137.25822
    }
  ]
}
