{
  "_note": "Generated by geocode.py from day-06-hakone.seed.json. Pins are auto-geocoded; verify before relying on them. 0 failure(s) need manual fix.",
  "region": "hakone",
  "places": [
    {
      "name": "Shinjuku Station (Odakyu)",
      "time": "10:30",
      "category": "transit",
      "lat": 35.69084,
      "lng": 139.70017
    },
    {
      "name": "Hakone-Yumoto Station",
      "time": "12:30",
      "category": "transit",
      "lat": 35.2332,
      "lng": 139.10347
    },
    {
      "name": "Gora Station",
      "time": "13:10",
      "category": "transit",
      "lat": 35.25064,
      "lng": 139.04822
    },
    {
      "name": "Tamura Ginkatsu-tei",
      "time": "13:15",
      "category": "lunch",
      "lat": 35.25065,
      "lng": 139.04927
    },
    {
      "name": "Hakone Museum of Art (moss garden)",
      "time": "15:30 optional",
      "category": "anchor",
      "lat": 35.2567,
      "lng": 139.02122
    }
  ]
}
